[
	{
		"name": "برج آزادی",
		"city": "تهران",
		"description": "در سال ۱۳۴۹ خورشیدی، توسط حسین امانت معمار ایرانی، طراحی و توسط مهندس محمد پورفتحی ساخته شد",
		"latitude": "35.69984125123995",
		"longitude": "51.33767203120139"
	},
	{
		"name": "بیمارستان امام خمینی",
		"city": "تهران",
		"description": "این بیمارستان در سال ۱۳۱۵ به دست مهندسان آلمانی احداث گردید",
		"latitude": "35.70837730621046",
		"longitude": "51.38072097882859"
	},
	{
		"name": "عمارت مسعودیه",
		"city": "تهران",
		"description": "با دستور مسعود میرزا ملقب به ظل‌السلطان فرزند ناصرالدین شاه در سال ۱۲۹۵ ساخته شد",
		"latitude": "35.689469951479225",
		"longitude": "51.42796482782283"
	},
	{
		"name": "مجموعه ورزشی انقلاب",
		"city": "تهران",
		"description": "این مجموعه شامل امکانات ورزشی مختلف برای اجرای ورزش‌ها و بازی‌های متفاوت است",
		"latitude": "35.78390879597507",
		"longitude": "51.39841941498053"
	},
	{
		"name": "کاخ گلستان",
		"city": "تهران",
		"description": "کاخ گلستان از کاخ‌های دوره زندیه و قاجار است که در مرکز شهر تهران واقع شده‌است",
		"latitude": "35.67975928031288",
		"longitude": "51.42051326551065"
	}
]